{
  "geo_level": "alcaldia",
  "metric": "monto_tpv",
  "items": [
    {
      "zone_id": "miguel_hidalgo",
      "zone_name": "Miguel Hidalgo",
      "lat": 19.43,
      "lon": -99.2,
      "value_2025": 9365899817.05,
      "value_2026": 25594262827.58,
      "absolute_change": 16228363010.53,
      "growth_pct": 173.3,
      "foreign_share_2026_pct": 3.8,
      "intensity": 1.0
    },
    {
      "zone_id": "benito_juarez",
      "zone_name": "Benito Juárez",
      "lat": 19.38,
      "lon": -99.16,
      "value_2025": 27016915969.24,
      "value_2026": 22158658477.23,
      "absolute_change": -4858257492.01,
      "growth_pct": -18.0,
      "foreign_share_2026_pct": 1.7,
      "intensity": 0.87
    },
    {
      "zone_id": "cuauhtemoc",
      "zone_name": "Cuauhtémoc",
      "lat": 19.4326,
      "lon": -99.1332,
      "value_2025": 10926772795.58,
      "value_2026": 10832364926.61,
      "absolute_change": -94407868.97,
      "growth_pct": -0.9,
      "foreign_share_2026_pct": 11.0,
      "intensity": 0.42
    },
    {
      "zone_id": "alvaro_obregon",
      "zone_name": "Álvaro Obregón",
      "lat": 19.36,
      "lon": -99.22,
      "value_2025": 5478558250.44,
      "value_2026": 5851129009.61,
      "absolute_change": 372570759.17,
      "growth_pct": 6.8,
      "foreign_share_2026_pct": 2.9,
      "intensity": 0.23
    },
    {
      "zone_id": "iztapalapa",
      "zone_name": "Iztapalapa",
      "lat": 19.3574,
      "lon": -99.0926,
      "value_2025": 4164778481.57,
      "value_2026": 4643839797.84,
      "absolute_change": 479061316.27,
      "growth_pct": 11.5,
      "foreign_share_2026_pct": 1.1,
      "intensity": 0.18
    },
    {
      "zone_id": "gustavo_a_madero",
      "zone_name": "Gustavo A. Madero",
      "lat": 19.4978,
      "lon": -99.1188,
      "value_2025": 4022595751.48,
      "value_2026": 4350751971.05,
      "absolute_change": 328156219.57,
      "growth_pct": 8.2,
      "foreign_share_2026_pct": 2.4,
      "intensity": 0.17
    },
    {
      "zone_id": "coyoacan",
      "zone_name": "Coyoacán",
      "lat": 19.3467,
      "lon": -99.1617,
      "value_2025": 3900038790.84,
      "value_2026": 4227300483.5,
      "absolute_change": 327261692.66,
      "growth_pct": 8.4,
      "foreign_share_2026_pct": 2.9,
      "intensity": 0.17
    },
    {
      "zone_id": "tlalpan",
      "zone_name": "Tlalpan",
      "lat": 19.29,
      "lon": -99.17,
      "value_2025": 3529648847.29,
      "value_2026": 3883191288.46,
      "absolute_change": 353542441.17,
      "growth_pct": 10.0,
      "foreign_share_2026_pct": 2.2,
      "intensity": 0.15
    },
    {
      "zone_id": "azcapotzalco",
      "zone_name": "Azcapotzalco",
      "lat": 19.4869,
      "lon": -99.18,
      "value_2025": 2866420098.8,
      "value_2026": 2918909570.06,
      "absolute_change": 52489471.26,
      "growth_pct": 1.8,
      "foreign_share_2026_pct": 3.1,
      "intensity": 0.11
    },
    {
      "zone_id": "cuajimalpa",
      "zone_name": "Cuajimalpa de Morelos",
      "lat": 19.3596,
      "lon": -99.2986,
      "value_2025": 2223939202.49,
      "value_2026": 2785864959.54,
      "absolute_change": 561925757.05,
      "growth_pct": 25.3,
      "foreign_share_2026_pct": 9.1,
      "intensity": 0.11
    },
    {
      "zone_id": "venustiano_carranza",
      "zone_name": "Venustiano Carranza",
      "lat": 19.43,
      "lon": -99.09,
      "value_2025": 2068710518.21,
      "value_2026": 2248868945.0,
      "absolute_change": 180158426.79,
      "growth_pct": 8.7,
      "foreign_share_2026_pct": 6.3,
      "intensity": 0.09
    },
    {
      "zone_id": "iztacalco",
      "zone_name": "Iztacalco",
      "lat": 19.3954,
      "lon": -99.098,
      "value_2025": 769540673.28,
      "value_2026": 880266741.02,
      "absolute_change": 110726067.74,
      "growth_pct": 14.4,
      "foreign_share_2026_pct": 2.6,
      "intensity": 0.03
    },
    {
      "zone_id": "xochimilco",
      "zone_name": "Xochimilco",
      "lat": 19.257,
      "lon": -99.1035,
      "value_2025": 553556116.0,
      "value_2026": 633442343.18,
      "absolute_change": 79886227.18,
      "growth_pct": 14.4,
      "foreign_share_2026_pct": 1.6,
      "intensity": 0.02
    },
    {
      "zone_id": "la_magdalena_contreras",
      "zone_name": "La Magdalena Contreras",
      "lat": 19.3229,
      "lon": -99.2255,
      "value_2025": 463521734.5,
      "value_2026": 507304555.61,
      "absolute_change": 43782821.11,
      "growth_pct": 9.4,
      "foreign_share_2026_pct": 3.2,
      "intensity": 0.02
    },
    {
      "zone_id": "tlahuac",
      "zone_name": "Tláhuac",
      "lat": 19.2897,
      "lon": -99.0097,
      "value_2025": 287715839.82,
      "value_2026": 367317457.93,
      "absolute_change": 79601618.11,
      "growth_pct": 27.7,
      "foreign_share_2026_pct": 0.8,
      "intensity": 0.01
    },
    {
      "zone_id": "milpa_alta",
      "zone_name": "Milpa Alta",
      "lat": 19.1927,
      "lon": -99.0227,
      "value_2025": 37840734.71,
      "value_2026": 42593201.44,
      "absolute_change": 4752466.73,
      "growth_pct": 12.6,
      "foreign_share_2026_pct": 0.6,
      "intensity": 0.0
    }
  ]
}